City,Lat,Lng,Max Temp,Humidity,Cloudiness,Wind Speed,Country,Date,Current Description
Carnarvon,-24.87,113.63,71.6,94,90,17.22,AU,2020-10-24 23:59:32,overcast clouds
Hithadhoo,-0.6,73.08,83.39,74,58,10.65,MV,2020-10-25 00:01:00,broken clouds
Feicheng,35.26,117.97,52.54,50,91,3.15,CN,2020-10-25 00:04:45,overcast clouds
Sao Filipe,14.9,-24.5,82.06,69,97,11.34,CV,2020-10-24 23:59:36,overcast clouds
Mahibadhoo,3.78,72.97,82.65,77,87,11.54,MV,2020-10-25 00:02:01,overcast clouds
Albany,42.6,-73.97,46.99,68,20,5.01,US,2020-10-24 23:59:53,few clouds
Rikitea,-23.12,-134.97,74.84,80,97,21.81,PF,2020-10-25 00:03:11,overcast clouds
Wanning,18.8,110.4,77.36,88,100,10.45,CN,2020-10-25 00:04:46,overcast clouds
Ushuaia,-54.8,-68.3,46.4,61,75,5.82,AR,2020-10-25 00:04:07,broken clouds
Saint-Philippe,-21.36,55.77,68.0,56,0,6.93,RE,2020-10-25 00:03:10,clear sky
Vostok,46.49,135.88,29.75,99,100,4.81,RU,2020-10-25 00:04:46,overcast clouds
Qaanaaq,77.48,-69.36,16.84,90,100,11.9,GL,2020-10-25 00:04:47,overcast clouds
Vao,-22.67,167.48,73.18,80,65,14.58,NC,2020-10-25 00:04:47,broken clouds
Puerto Ayora,-0.74,-90.35,69.01,93,89,7.0,EC,2020-10-25 00:04:47,overcast clouds
Ponta Do Sol,32.67,-17.1,64.4,72,20,6.93,PT,2020-10-25 00:04:47,few clouds
Tongliao,43.61,122.27,42.22,60,49,4.83,CN,2020-10-25 00:04:48,scattered clouds
Dali,25.7,100.18,56.55,88,97,1.16,CN,2020-10-25 00:04:48,light rain
Port Elizabeth,-33.92,25.57,60.8,93,0,3.36,ZA,2020-10-24 23:55:36,clear sky
Rawson,-43.3,-65.1,59.05,66,46,11.9,AR,2020-10-24 23:59:05,scattered clouds
Nikolskoye,59.7,30.79,39.0,86,75,4.47,RU,2020-10-24 23:59:40,broken clouds
Ribeira Grande,38.52,-28.7,66.69,80,87,11.41,PT,2020-10-24 23:55:08,overcast clouds
Fortuna,40.6,-124.16,55.99,76,1,11.41,US,2020-10-24 23:59:47,clear sky
Kiama,-34.68,150.87,57.0,76,100,5.99,AU,2020-10-25 00:01:57,overcast clouds
Skelleftea,64.75,20.95,24.8,92,8,4.7,SE,2020-10-25 00:00:28,clear sky
Mataura,-46.19,168.86,73.6,46,100,14.74,NZ,2020-10-24 23:59:22,overcast clouds
Cape Town,-33.93,18.42,60.01,93,75,4.7,ZA,2020-10-25 00:04:14,broken clouds
San Patricio,28.02,-97.52,73.4,49,40,4.7,US,2020-10-24 23:59:37,scattered clouds
Punta Arenas,-53.15,-70.92,42.8,93,90,14.99,CL,2020-10-24 23:54:52,overcast clouds
Bluff,-46.6,168.33,65.62,58,99,17.56,NZ,2020-10-24 23:59:23,light rain
Makakilo City,21.35,-158.09,84.2,70,1,9.17,US,2020-10-25 00:00:52,clear sky
Lebu,-37.62,-73.65,49.8,82,28,4.9,CL,2020-10-24 23:59:16,scattered clouds
Kapaa,22.08,-159.32,84.99,74,40,11.41,US,2020-10-24 23:54:56,scattered clouds
Provideniya,64.38,-173.3,35.04,86,80,12.39,RU,2020-10-24 23:57:49,broken clouds
Mar Del Plata,-38.0,-57.56,61.0,100,90,5.82,AR,2020-10-25 00:00:33,overcast clouds
Manono,-7.3,27.42,72.39,86,95,1.66,CD,2020-10-25 00:04:52,overcast clouds
Kruisfontein,-34.0,24.73,60.01,90,0,1.01,ZA,2020-10-25 00:04:52,clear sky
Bambanglipuro,-7.95,110.28,80.04,81,92,7.9,ID,2020-10-25 00:04:52,overcast clouds
Vila Franca Do Campo,37.72,-25.43,66.2,93,75,19.46,PT,2020-10-24 23:57:07,light intensity drizzle rain
Barrow,71.29,-156.79,33.8,86,90,12.75,US,2020-10-24 23:59:25,overcast clouds
Saint-Tite,46.73,-72.57,42.8,60,90,6.93,CA,2020-10-25 00:04:53,overcast clouds
Tasiilaq,65.61,-37.64,32.0,93,93,3.36,GL,2020-10-24 23:59:35,overcast clouds
Merauke,-8.47,140.33,83.71,72,87,5.68,ID,2020-10-25 00:00:16,light rain
Tuktoyaktuk,69.45,-133.04,17.6,92,75,8.05,CA,2020-10-24 23:57:00,broken clouds
Biloxi,30.4,-88.89,78.8,69,75,3.36,US,2020-10-25 00:04:31,broken clouds
Cabo San Lucas,22.89,-109.91,87.01,58,5,11.41,MX,2020-10-24 23:56:57,clear sky
Busselton,-33.65,115.33,63.0,60,28,7.0,AU,2020-10-24 23:58:29,scattered clouds
Yellowknife,62.46,-114.35,24.8,62,75,10.29,CA,2020-10-24 23:59:59,broken clouds
Los Llanos De Aridane,28.66,-17.92,71.6,56,75,8.05,ES,2020-10-25 00:01:04,broken clouds
Hilo,19.73,-155.09,87.8,62,90,18.34,US,2020-10-24 23:59:19,overcast clouds
Hobart,-42.88,147.33,50.0,65,75,17.22,AU,2020-10-24 23:55:06,broken clouds
Hermanus,-34.42,19.23,62.01,86,48,3.0,ZA,2020-10-25 00:04:55,scattered clouds
Hegang,47.4,130.37,37.29,76,33,16.37,CN,2020-10-25 00:04:56,scattered clouds
Saint-Joseph,-21.37,55.62,68.0,56,0,6.93,RE,2020-10-25 00:04:56,clear sky
Changli,39.7,119.15,52.45,41,100,5.73,CN,2020-10-25 00:04:57,overcast clouds
Jevargi,17.02,76.77,73.69,78,1,3.83,IN,2020-10-25 00:04:57,clear sky
Bengkulu,-3.8,102.27,77.43,81,100,3.74,ID,2020-10-24 23:59:26,overcast clouds
Jamestown,42.1,-79.24,41.0,69,90,5.82,US,2020-10-24 23:56:46,overcast clouds
Fratautii Vechi,47.9,25.88,57.99,88,100,2.35,RO,2020-10-25 00:04:57,overcast clouds
Banderilla,19.58,-96.93,62.28,95,23,2.01,MX,2020-10-25 00:04:58,light rain
Atuona,-9.8,-139.03,78.62,76,1,20.71,PF,2020-10-24 23:59:30,light rain
Fartura,-23.39,-49.51,70.92,87,69,2.19,BR,2020-10-25 00:04:58,broken clouds
Mount Gambier,-37.83,140.77,50.0,61,90,24.16,AU,2020-10-24 23:59:52,overcast clouds
Bandundu,-3.32,17.37,72.77,92,86,1.66,CD,2020-10-25 00:04:59,overcast clouds
Ngunut,-8.11,112.02,79.59,79,87,5.32,ID,2020-10-25 00:04:59,overcast clouds
Namatanai,-3.67,152.43,85.44,66,31,1.81,PG,2020-10-25 00:01:25,light rain
Vaini,-21.2,-175.2,73.4,94,75,8.05,TO,2020-10-24 23:59:21,broken clouds
Senneterre,48.38,-77.23,28.4,74,75,3.36,CA,2020-10-25 00:05:00,broken clouds
Homer,59.64,-151.55,51.8,53,40,6.93,US,2020-10-25 00:05:00,scattered clouds
Ostrovnoy,68.05,39.51,31.8,98,100,11.41,RU,2020-10-25 00:00:55,overcast clouds
Santa Clarita,34.39,-118.54,68.0,56,90,7.81,US,2020-10-25 00:05:00,overcast clouds
Mpanda,-6.37,31.04,72.72,55,25,2.08,TZ,2020-10-25 00:05:01,scattered clouds
Mahebourg,-20.41,57.7,71.6,88,75,9.17,MU,2020-10-25 00:01:49,light intensity shower rain
New Norfolk,-42.78,147.06,50.0,57,32,3.0,AU,2020-10-24 23:55:53,scattered clouds
Bredasdorp,-34.53,20.04,64.4,77,11,9.17,ZA,2020-10-24 23:59:34,few clouds
Mapiripan,2.89,-72.13,78.04,82,32,4.07,CO,2020-10-25 00:05:01,light rain
Pisco,-13.7,-76.22,64.4,77,0,16.11,PE,2020-10-24 23:55:49,clear sky
Bangolo,7.01,-7.47,70.09,83,40,1.21,CI,2020-10-25 00:05:03,scattered clouds
Avarua,-21.21,-159.78,75.2,73,40,14.99,CK,2020-10-24 23:57:26,scattered clouds
Santa Rosa,14.31,121.11,80.01,88,40,4.7,PH,2020-10-25 00:05:03,scattered clouds
Georgetown,5.41,100.34,77.0,94,40,4.07,MY,2020-10-24 23:59:24,scattered clouds
Khatanga,71.97,102.5,6.44,95,100,14.52,RU,2020-10-24 23:56:08,light snow
Antigonish,45.62,-62.0,55.0,97,100,1.77,CA,2020-10-25 00:05:04,overcast clouds
Norman Wells,65.28,-126.83,23.0,85,75,3.36,CA,2020-10-24 23:56:54,broken clouds
Butaritari,3.07,172.79,81.03,70,13,9.24,KI,2020-10-24 23:56:45,few clouds
Kokopo,-4.35,152.26,85.37,62,20,4.41,PG,2020-10-25 00:05:05,few clouds
Usinsk,65.99,57.53,20.26,93,100,4.5,RU,2020-10-25 00:05:05,overcast clouds
Airai,-8.93,125.41,73.74,65,14,0.67,TL,2020-10-24 23:59:20,few clouds
Pevek,69.7,170.31,27.95,90,1,14.56,RU,2020-10-24 23:59:40,clear sky
Akyab,20.15,92.9,78.55,88,97,7.92,MM,2020-10-25 00:05:06,overcast clouds
Oriximina,-1.77,-55.87,84.38,46,100,3.11,BR,2020-10-24 23:55:54,overcast clouds
Port Alfred,-33.59,26.89,65.21,89,6,5.88,ZA,2020-10-24 23:54:50,clear sky
Carlsbad,33.16,-117.35,70.0,64,75,8.05,US,2020-10-25 00:03:16,broken clouds
Santa Rosalia,27.32,-112.28,84.72,36,0,1.68,MX,2020-10-25 00:05:07,clear sky
Dikson,73.51,80.55,21.99,93,19,4.23,RU,2020-10-24 23:59:29,few clouds
Hofn,64.25,-15.21,44.37,82,100,20.67,IS,2020-10-24 23:57:49,moderate rain
Lodja,-3.48,23.43,69.82,98,100,1.77,CD,2020-10-24 23:59:58,moderate rain
Borogontsy,62.67,131.17,9.54,95,24,3.22,RU,2020-10-25 00:05:08,few clouds
Isangel,-19.55,169.27,82.4,69,75,5.82,VU,2020-10-24 23:57:23,broken clouds
Port Moresby,-9.44,147.18,83.64,68,53,4.47,PG,2020-10-25 00:05:09,broken clouds
Longyearbyen,78.22,15.64,19.4,85,75,2.24,SJ,2020-10-24 23:56:59,broken clouds
Ati,13.22,18.34,83.44,17,19,14.12,TD,2020-10-25 00:05:09,few clouds
Itaituba,-4.28,-55.98,77.36,82,98,2.55,BR,2020-10-25 00:05:09,overcast clouds
Viedma,-40.81,-63.0,71.01,66,23,3.0,AR,2020-10-25 00:00:29,few clouds
Kisangani,0.52,25.2,71.74,97,100,2.68,CD,2020-10-25 00:05:10,light rain
Cherskiy,68.75,161.3,18.36,94,4,4.68,RU,2020-10-24 23:56:27,clear sky
Upernavik,72.79,-56.15,22.3,93,100,9.33,GL,2020-10-24 23:56:54,overcast clouds
Atar,20.52,-13.05,87.08,23,92,8.19,MR,2020-10-25 00:05:11,overcast clouds
Medea,36.26,2.75,57.2,93,20,1.12,DZ,2020-10-25 00:05:11,few clouds
Erzin,36.96,36.2,73.99,28,100,8.01,TR,2020-10-25 00:05:11,overcast clouds
Innisfail,-17.53,146.03,82.98,61,46,4.79,AU,2020-10-24 23:59:45,scattered clouds
Meulaboh,4.14,96.13,73.87,95,100,4.79,ID,2020-10-25 00:01:59,overcast clouds
East London,-33.02,27.91,69.04,87,4,2.77,ZA,2020-10-24 23:57:15,clear sky
Alice Springs,-23.7,133.88,66.2,34,0,16.11,AU,2020-10-25 00:01:09,clear sky
Beloha,-25.17,45.05,67.98,86,95,6.64,MG,2020-10-25 00:05:12,overcast clouds
Novo Aripuana,-5.12,-60.38,74.48,97,100,2.13,BR,2020-10-25 00:05:13,moderate rain
Castro,-24.79,-50.01,63.1,91,64,3.56,BR,2020-10-25 00:00:35,heavy intensity rain
Riviere-Au-Renard,49.0,-64.4,46.4,70,90,8.05,CA,2020-10-25 00:05:13,overcast clouds
Maniitsoq,65.42,-52.9,23.29,87,0,9.91,GL,2020-10-24 23:59:55,clear sky
Orito,0.68,-76.88,86.0,66,0,3.36,CO,2020-10-25 00:05:14,clear sky
Luderitz,-26.65,15.16,61.81,70,53,18.28,NA,2020-10-24 23:55:14,broken clouds
Komsomolskiy,40.43,71.72,44.6,56,100,6.93,UZ,2020-10-25 00:05:14,overcast clouds
Haines Junction,60.75,-137.51,28.29,75,100,1.68,CA,2020-10-24 23:58:34,overcast clouds
Nouadhibou,20.93,-17.03,73.4,64,0,16.11,MR,2020-10-24 23:59:50,clear sky
Nizhnekamsk,55.64,51.82,41.0,93,40,8.95,RU,2020-10-25 00:00:49,scattered clouds
Broome,42.25,-75.83,43.0,72,90,10.29,US,2020-10-25 00:01:04,overcast clouds
Antalaha,-14.9,50.28,70.74,80,16,6.02,MG,2020-10-25 00:05:15,light rain
Gobabis,-22.45,18.97,71.92,22,87,8.3,NA,2020-10-25 00:05:16,overcast clouds
Vanimo,-2.67,141.3,82.33,79,91,2.19,PG,2020-10-25 00:00:49,light rain
Chuy,-33.7,-53.46,61.84,97,6,4.81,UY,2020-10-24 23:59:42,clear sky
Severo-Kurilsk,50.68,156.12,46.92,92,100,16.93,RU,2020-10-24 23:57:14,light rain
Ouadda,8.08,22.4,69.08,88,100,1.36,CF,2020-10-25 00:05:17,light rain
Port Lincoln,-34.73,135.87,54.84,55,84,17.67,AU,2020-10-25 00:01:19,broken clouds
Chapais,49.78,-74.85,26.6,79,90,9.17,CA,2020-10-24 23:59:27,light snow
Ulladulla,-35.35,150.47,54.0,76,90,12.75,AU,2020-10-25 00:05:17,overcast clouds
Ulaangom,49.98,92.07,26.1,80,1,9.08,MN,2020-10-25 00:05:18,clear sky
Along,28.17,94.77,68.45,90,100,0.2,IN,2020-10-25 00:05:18,overcast clouds
Beringovskiy,63.05,179.32,31.48,96,100,15.03,RU,2020-10-25 00:05:18,overcast clouds
Zunheboto,25.97,94.52,56.75,100,60,3.04,IN,2020-10-25 00:05:19,broken clouds
Gerede,40.8,32.2,54.23,44,0,4.85,TR,2020-10-25 00:05:20,clear sky
Linxi,39.7,118.43,52.11,41,100,3.91,CN,2020-10-25 00:05:20,overcast clouds
Rio Gallegos,-51.62,-69.22,44.6,93,90,5.82,AR,2020-10-25 00:05:20,overcast clouds
Hirara,24.8,125.28,73.4,68,40,9.17,JP,2020-10-24 23:59:23,scattered clouds
Guerrero Negro,27.98,-114.06,69.6,73,8,17.96,MX,2020-10-25 00:01:54,clear sky
Talnakh,69.49,88.4,14.0,92,75,11.18,RU,2020-10-24 23:57:31,light snow
Bafra,41.57,35.91,51.8,93,40,2.24,TR,2020-10-25 00:05:22,mist
Luganville,-15.53,167.17,84.2,70,75,10.29,VU,2020-10-25 00:05:22,broken clouds
Arraial Do Cabo,-22.97,-42.03,70.83,94,100,21.07,BR,2020-10-24 23:57:09,moderate rain
Karratha,-20.74,116.85,73.29,61,0,9.82,AU,2020-10-25 00:05:22,clear sky
Ilam,26.92,87.92,59.85,93,31,2.28,NP,2020-10-25 00:05:23,scattered clouds
Krasnaya Gora,53.0,31.6,51.8,87,75,11.18,RU,2020-10-25 00:05:23,broken clouds
Nakamura,32.98,132.93,59.56,54,0,4.27,JP,2020-10-25 00:05:23,clear sky
Goderich,43.75,-81.72,42.01,81,64,8.95,CA,2020-10-25 00:05:23,broken clouds
Turayf,31.67,38.66,60.8,29,0,9.17,SA,2020-10-25 00:05:23,clear sky
Okha,53.57,142.95,44.76,84,9,4.41,RU,2020-10-25 00:05:24,clear sky
Minbu,20.18,94.88,74.28,92,100,3.4,MM,2020-10-25 00:05:24,overcast clouds
Ambilobe,-13.2,49.05,70.03,79,4,4.52,MG,2020-10-25 00:05:25,clear sky
Port Macquarie,-31.43,152.92,72.0,77,90,11.41,AU,2020-10-25 00:01:41,overcast clouds
Esperance,-33.87,121.9,55.4,82,0,16.11,AU,2020-10-24 23:55:51,clear sky
Katobu,-4.94,122.53,86.58,61,43,2.51,ID,2020-10-25 00:05:26,scattered clouds
San Quintin,30.48,-115.95,67.84,72,95,12.73,MX,2020-10-25 00:01:44,overcast clouds
Bandarbeyla,9.49,50.81,75.49,82,87,3.47,SO,2020-10-25 00:05:26,overcast clouds
Kaitangata,-46.28,169.85,70.57,49,100,12.06,NZ,2020-10-24 23:59:30,overcast clouds
Emerald,-23.53,148.17,73.4,88,75,2.24,AU,2020-10-25 00:05:27,broken clouds
Grindavik,63.84,-22.43,41.0,75,75,28.86,IS,2020-10-24 23:59:54,broken clouds
Sistranda,63.73,8.83,42.8,70,75,17.22,NO,2020-10-25 00:05:27,broken clouds
Nantucket,41.28,-70.1,62.01,92,90,10.29,US,2020-10-25 00:03:16,overcast clouds
Mujiayingzi,42.12,118.78,44.69,52,83,4.56,CN,2020-10-25 00:05:28,broken clouds
Hasaki,35.73,140.83,57.0,71,75,4.7,JP,2020-10-25 00:00:15,broken clouds
Vestmannaeyjar,63.44,-20.27,45.97,65,80,26.24,IS,2020-10-25 00:01:31,light rain
Puri,19.8,85.85,77.0,100,40,6.73,IN,2020-10-25 00:01:13,mist
Nishihara,26.18,127.76,73.4,60,20,10.29,JP,2020-10-24 23:59:25,few clouds
Hlyboka,48.09,25.93,57.99,88,100,2.93,UA,2020-10-25 00:05:29,overcast clouds
Thompson,55.74,-97.86,24.8,62,90,8.05,CA,2020-10-24 23:55:27,light snow
La Ronge,55.1,-105.28,24.8,53,75,10.29,CA,2020-10-25 00:00:27,light snow
Cap Malheureux,-19.98,57.61,69.01,90,28,5.99,MU,2020-10-25 00:05:30,light rain
Linqiong,30.42,103.46,68.0,100,40,1.41,CN,2020-10-25 00:05:30,mist
Sollies-Pont,43.19,6.04,59.0,82,0,3.36,FR,2020-10-25 00:05:31,clear sky
Alofi,-19.06,-169.92,80.6,78,90,16.11,NU,2020-10-25 00:01:52,overcast clouds
Ferrol,43.48,-8.24,62.6,82,20,14.99,ES,2020-10-25 00:05:31,few clouds
Rincon,32.3,-81.24,75.2,73,75,6.93,US,2020-10-25 00:01:48,broken clouds
Pascagoula,30.37,-88.56,78.8,78,1,5.82,US,2020-10-25 00:02:08,clear sky
Leshukonskoye,64.9,45.76,25.47,98,98,4.92,RU,2020-10-25 00:00:14,overcast clouds
Chokurdakh,70.63,147.92,14.43,96,87,7.52,RU,2020-10-25 00:00:37,overcast clouds
Margate,51.38,1.39,53.01,91,100,4.0,GB,2020-10-25 00:01:55,moderate rain
Tuatapere,-46.13,167.68,70.45,52,96,12.88,NZ,2020-10-24 23:56:06,heavy intensity rain
Saint George,37.1,-113.58,79.0,26,1,11.41,US,2020-10-24 23:57:14,clear sky
Jawhar,2.78,45.5,77.9,81,100,5.84,SO,2020-10-25 00:05:33,moderate rain
Vila Velha,-20.33,-40.29,75.0,94,40,5.82,BR,2020-10-25 00:05:33,mist
Zholymbet,51.74,71.71,30.13,97,100,24.76,KZ,2020-10-25 00:05:33,overcast clouds
Bethel,41.37,-73.41,53.01,66,69,4.0,US,2020-10-24 23:59:52,broken clouds
Olafsvik,64.89,-23.71,41.29,79,95,41.83,IS,2020-10-24 23:59:53,light rain
Lorengau,-2.02,147.27,85.89,59,30,6.85,PG,2020-10-25 00:05:34,scattered clouds
Vitim,59.45,112.56,32.65,96,100,4.29,RU,2020-10-25 00:05:34,overcast clouds
Mount Isa,-20.73,139.5,77.0,38,0,13.87,AU,2020-10-24 23:58:12,clear sky
Kindu,-2.95,25.95,70.86,97,100,1.07,CD,2020-10-25 00:05:35,light rain
Ngunguru,-35.62,174.5,65.08,72,1,9.15,NZ,2020-10-25 00:05:35,clear sky
Torbay,47.67,-52.73,50.0,93,90,18.34,CA,2020-10-24 23:55:15,light rain
Morondava,-20.28,44.28,74.53,69,55,11.88,MG,2020-10-25 00:05:35,broken clouds
Videbaek,56.09,8.63,55.99,93,100,10.29,DK,2020-10-25 00:05:36,overcast clouds
Sao Joao Da Barra,-21.64,-41.05,72.39,92,100,16.28,BR,2020-10-25 00:00:05,moderate rain
Omboue,-1.57,9.26,76.96,86,100,8.08,GA,2020-10-25 00:05:36,overcast clouds
Tadine,-21.55,167.88,77.5,71,40,11.63,NC,2020-10-25 00:05:37,scattered clouds
Cidreira,-30.18,-50.21,68.45,91,54,14.36,BR,2020-10-24 23:57:08,broken clouds
Saldanha,-33.01,17.94,62.6,77,5,3.36,ZA,2020-10-24 23:59:48,clear sky
Kaohsiung,22.62,120.31,78.8,74,75,3.36,TW,2020-10-25 00:01:42,broken clouds
Straumen,63.87,11.3,41.0,84,0,19.46,NO,2020-10-25 00:05:37,clear sky
Wenling,28.37,121.36,66.0,72,3,5.91,CN,2020-10-25 00:05:38,clear sky
Tautira,-17.73,-149.15,86.0,66,75,8.05,PF,2020-10-24 23:57:48,shower rain
Sembakung,3.82,117.25,78.22,90,100,1.16,ID,2020-10-25 00:05:38,overcast clouds
Farmington,36.73,-108.22,69.8,16,1,6.93,US,2020-10-25 00:04:38,clear sky
Saint-Francois,46.42,3.91,46.0,100,77,4.7,FR,2020-10-25 00:05:39,broken clouds
Krasnozerskoye,53.98,79.24,26.71,81,49,13.09,RU,2020-10-25 00:05:39,scattered clouds
Saint Anthony,45.02,-93.22,30.99,50,1,3.36,US,2020-10-24 23:58:01,clear sky
Diapaga,12.07,1.79,80.65,26,98,4.05,BF,2020-10-25 00:05:39,overcast clouds
Ludvika,60.15,15.19,37.4,93,90,5.82,SE,2020-10-25 00:05:40,overcast clouds
Saskylakh,71.92,114.08,13.08,94,100,19.82,RU,2020-10-24 23:59:41,light snow
Nakatsugawa,35.48,137.5,52.0,84,0,1.01,JP,2020-10-25 00:05:41,clear sky
Bundaberg,-24.85,152.35,82.0,61,75,17.22,AU,2020-10-25 00:05:41,broken clouds
Kormilovka,55.0,74.1,28.4,74,75,13.42,RU,2020-10-25 00:05:41,light shower snow
Southbridge,42.08,-72.03,57.0,75,55,8.57,US,2020-10-25 00:04:13,broken clouds
Beidao,34.57,105.89,53.42,73,93,2.01,CN,2020-10-25 00:05:42,overcast clouds
Caravelas,-17.71,-39.25,75.9,86,90,7.65,BR,2020-10-24 23:59:25,light rain
Arawa,-6.21,155.54,88.57,57,71,3.74,PG,2020-10-25 00:05:42,light rain
Lundazi,-12.29,33.18,67.03,63,40,5.3,ZM,2020-10-25 00:05:42,scattered clouds
Paita,-5.09,-81.11,62.53,85,43,14.27,PE,2020-10-25 00:05:43,scattered clouds
Valley City,46.92,-98.0,24.8,68,90,4.7,US,2020-10-25 00:05:03,overcast clouds
Klaksvik,62.23,-6.59,46.4,81,21,17.22,FO,2020-10-25 00:05:43,light rain
Camacha,33.08,-16.33,62.6,77,20,2.24,PT,2020-10-24 23:59:46,few clouds
Adrar,20.5,-10.07,88.3,12,100,5.82,MR,2020-10-25 00:05:43,overcast clouds
Alyangula,-13.85,136.42,86.0,70,40,5.82,AU,2020-10-25 00:00:56,scattered clouds
Black Diamond,47.31,-122.0,48.99,61,62,3.0,US,2020-10-25 00:02:47,broken clouds
Singaraja,-8.11,115.09,83.62,68,40,1.39,ID,2020-10-25 00:05:44,scattered clouds
Ostersund,63.18,14.64,32.0,98,95,10.29,SE,2020-10-25 00:05:45,overcast clouds
Cedar City,37.68,-113.06,68.0,22,1,20.8,US,2020-10-25 00:05:45,clear sky
Anandnagar,27.1,83.28,66.0,61,0,0.83,IN,2020-10-25 00:05:45,clear sky
Besikduzu,41.05,39.23,60.8,63,0,5.82,TR,2020-10-25 00:05:45,clear sky
Tiksi,71.69,128.87,10.09,91,100,26.31,RU,2020-10-24 23:59:56,overcast clouds
Lompoc,34.64,-120.46,66.2,63,90,12.75,US,2020-10-24 23:57:28,overcast clouds
Itarema,-2.92,-39.92,79.59,81,1,14.61,BR,2020-10-25 00:00:28,clear sky
Kabala,9.58,-11.55,70.38,71,95,2.39,SL,2020-10-25 00:05:46,overcast clouds
Medicine Hat,50.05,-110.67,18.0,72,90,10.29,CA,2020-10-25 00:04:38,mist
Cabra,37.47,-4.44,54.0,83,0,2.46,ES,2020-10-25 00:05:47,clear sky
Cabedelo,-6.98,-34.83,77.0,88,40,5.82,BR,2020-10-25 00:00:20,scattered clouds
Ano Mera,37.45,25.4,66.99,88,4,6.93,GR,2020-10-25 00:05:47,clear sky
Palenque,17.52,-91.97,74.88,92,96,8.9,MX,2020-10-25 00:05:47,moderate rain
Kavaratti,10.57,72.64,81.59,71,32,7.67,IN,2020-10-25 00:01:20,scattered clouds
Okhotsk,59.38,143.3,39.04,80,100,16.8,RU,2020-10-24 23:59:28,overcast clouds
Nesbyen,60.57,9.1,35.01,98,100,3.0,NO,2020-10-25 00:05:48,overcast clouds
Aanekoski,62.69,25.82,26.01,100,20,1.12,FI,2020-10-25 00:05:48,fog
Husavik,66.04,-17.34,41.0,75,90,20.8,IS,2020-10-24 23:59:28,light rain
Kavieng,-2.57,150.8,84.81,67,98,1.43,PG,2020-10-25 00:00:34,light rain
Yaan,7.38,8.57,71.71,95,100,8.16,NG,2020-10-25 00:02:11,light rain
Podgorodnyaya Pokrovka,51.83,54.99,48.2,100,90,6.71,RU,2020-10-25 00:05:50,mist
Neiafu,-18.65,-173.98,77.0,88,90,4.7,TO,2020-10-25 00:05:50,overcast clouds
Turukhansk,65.82,87.98,8.96,95,99,5.17,RU,2020-10-24 23:57:58,overcast clouds
Igrim,63.19,64.42,24.06,95,100,9.6,RU,2020-10-25 00:05:50,overcast clouds
Bam,29.11,58.36,57.24,34,0,11.56,IR,2020-10-25 00:01:37,clear sky
Faanui,-16.48,-151.75,79.65,74,38,8.79,PF,2020-10-24 23:55:54,scattered clouds
San Cristobal,7.77,-72.22,86.0,62,40,5.82,VE,2020-10-24 23:57:36,scattered clouds
Karasjok,69.47,25.51,37.4,86,97,25.28,NO,2020-10-25 00:05:51,overcast clouds
Victoria,22.29,114.16,75.0,65,98,1.01,HK,2020-10-24 23:55:24,overcast clouds
Bokoro,12.38,17.06,82.92,19,16,10.78,TD,2020-10-25 00:05:52,few clouds
Bambous Virieux,-20.34,57.76,71.6,88,75,9.17,MU,2020-10-24 23:56:59,light intensity shower rain
Korla,41.76,86.15,42.01,73,11,1.99,CN,2020-10-25 00:05:52,few clouds
Urumqi,43.8,87.6,41.0,86,0,2.24,CN,2020-10-25 00:01:40,clear sky
Aklavik,68.22,-135.01,19.4,92,75,3.36,CA,2020-10-24 23:56:02,broken clouds
Yumen,40.28,97.2,35.83,79,100,6.62,CN,2020-10-24 23:58:07,overcast clouds
Palmer,42.16,-72.33,55.4,62,20,12.75,US,2020-10-24 23:56:10,few clouds
Conde,-7.26,-34.91,77.0,88,40,5.82,BR,2020-10-25 00:01:30,scattered clouds
Chicama,-7.84,-79.15,64.87,78,34,5.26,PE,2020-10-25 00:05:54,scattered clouds
Takhtamygda,54.1,123.57,30.34,94,0,2.75,RU,2020-10-25 00:01:32,clear sky
Egvekinot,66.32,-179.17,24.03,96,14,6.85,RU,2020-10-24 23:59:54,few clouds
Dingle,11.0,122.67,79.12,83,98,2.21,PH,2020-10-24 23:59:37,overcast clouds
Tiznit,29.58,-9.5,64.8,55,24,0.63,MA,2020-10-25 00:05:55,few clouds
Namibe,-15.2,12.15,67.87,82,68,5.1,AO,2020-10-25 00:01:04,broken clouds
Thinadhoo,0.53,72.93,83.19,74,54,11.59,MV,2020-10-24 23:59:36,broken clouds
Avera,33.19,-82.53,73.4,88,1,5.44,US,2020-10-25 00:05:56,clear sky
East Grinstead,51.12,-0.01,53.6,87,40,11.41,GB,2020-10-25 00:05:56,light rain
Sinnamary,5.38,-52.95,81.52,78,66,10.47,GF,2020-10-25 00:01:11,broken clouds
West Calder,55.85,-3.57,44.01,86,0,2.24,GB,2020-10-25 00:05:57,clear sky
Dunedin,-45.87,170.5,73.0,39,100,15.01,NZ,2020-10-25 00:02:10,overcast clouds
Ust-Koksa,50.27,85.61,16.83,85,10,2.17,RU,2020-10-24 23:59:59,clear sky
Kodiak,57.79,-152.41,46.4,93,90,5.82,US,2020-10-24 23:59:33,overcast clouds
Nhulunbuy,-12.23,136.77,86.0,70,75,3.36,AU,2020-10-24 23:58:02,broken clouds
Bridgetown,13.1,-59.62,82.4,74,40,23.04,BB,2020-10-25 00:05:58,scattered clouds
Wajima,37.4,136.9,50.0,87,75,4.7,JP,2020-10-25 00:05:58,broken clouds
Keti Bandar,24.14,67.45,77.76,61,0,8.14,PK,2020-10-25 00:05:59,clear sky
Jumla,29.27,82.18,42.51,50,0,5.5,NP,2020-10-25 00:01:13,clear sky
Mahina,-17.51,-149.49,86.0,66,75,8.05,PF,2020-10-25 00:05:59,shower rain
Yulara,-25.24,130.99,66.2,32,0,19.46,AU,2020-10-24 23:59:40,clear sky
Svetlyy,54.67,20.13,51.8,93,65,6.71,RU,2020-10-25 00:01:37,broken clouds
Ilulissat,69.22,-51.1,21.2,57,20,13.87,GL,2020-10-24 23:59:26,few clouds
Bilma,18.69,12.92,72.77,19,0,4.85,NE,2020-10-24 23:59:22,clear sky
Balkhash,46.84,74.98,32.95,82,38,6.08,KZ,2020-10-25 00:00:50,scattered clouds
Marzuq,14.4,46.47,61.83,29,3,2.1,YE,2020-10-25 00:06:00,clear sky
Sakakah,29.97,40.21,64.4,18,0,3.36,SA,2020-10-25 00:06:01,clear sky
Paso De Los Toros,-32.82,-56.52,70.21,87,97,5.41,UY,2020-10-25 00:06:01,overcast clouds
Ndele,8.41,20.65,73.27,88,75,3.78,CF,2020-10-25 00:06:01,light rain
La Pintada,5.75,-75.61,62.6,93,40,4.7,CO,2020-10-25 00:06:02,scattered clouds
Prado,-17.34,-39.22,76.21,86,99,9.62,BR,2020-10-25 00:06:02,overcast clouds
Souillac,-20.52,57.52,71.6,88,75,9.17,MU,2020-10-24 23:55:11,light intensity shower rain
Stornoway,58.21,-6.39,48.2,81,44,31.09,GB,2020-10-24 23:58:47,heavy intensity rain
Tongren,27.72,109.19,57.22,73,45,0.16,CN,2020-10-25 00:06:03,scattered clouds
Lagos,6.58,3.75,80.6,88,20,2.24,NG,2020-10-25 00:05:01,few clouds
Boulder,40.08,-105.35,45.0,45,1,5.82,US,2020-10-25 00:03:13,clear sky
Tura,25.52,90.22,70.93,99,93,4.43,IN,2020-10-25 00:06:03,overcast clouds
Abadan,30.34,48.3,62.6,93,0,2.24,IR,2020-10-25 00:06:04,mist
Lethem,3.38,-59.8,84.24,57,83,8.03,GY,2020-10-25 00:06:04,broken clouds
Taseyevo,57.22,94.9,26.58,94,69,4.85,RU,2020-10-25 00:06:04,broken clouds
San Policarpo,12.18,125.51,78.22,91,100,14.09,PH,2020-10-25 00:06:04,heavy intensity rain
Kapit,2.02,112.93,77.61,83,95,1.32,MY,2020-10-25 00:06:05,overcast clouds
Linhai,28.85,121.12,61.0,70,0,0.81,CN,2020-10-25 00:06:05,clear sky
Gaborone,-24.65,25.91,75.2,44,40,6.93,BW,2020-10-25 00:06:05,scattered clouds
Gao,16.64,1.64,81.1,14,0,13.38,ML,2020-10-25 00:02:06,clear sky
Castelo Branco,39.82,-7.49,57.99,78,97,4.0,PT,2020-10-25 00:06:05,overcast clouds
Cayenne,4.93,-52.33,80.6,83,75,4.7,GF,2020-10-24 23:58:27,broken clouds
Muborak,39.26,65.15,42.24,64,0,4.97,UZ,2020-10-25 00:06:06,clear sky
Hudiksvall,61.73,17.1,34.52,89,100,3.44,SE,2020-10-25 00:04:06,overcast clouds
Pangnirtung,66.15,-65.71,16.9,88,91,5.19,CA,2020-10-25 00:01:22,overcast clouds
Dudinka,69.41,86.18,14.0,92,75,11.18,RU,2020-10-24 23:58:10,light snow
Hami,42.8,93.45,42.24,62,43,7.7,CN,2020-10-24 23:58:34,scattered clouds
Mozarlandia,-14.74,-50.57,70.63,91,100,4.92,BR,2020-10-25 00:06:07,overcast clouds
Ancud,-41.87,-73.82,46.99,87,40,9.17,CL,2020-10-24 23:59:17,scattered clouds
Manavalakurichi,8.13,77.3,78.8,83,20,10.25,IN,2020-10-25 00:06:08,mist
Aasiaat,68.71,-52.87,16.23,97,69,11.39,GL,2020-10-25 00:06:08,broken clouds
Diebougou,10.97,-3.25,77.61,32,32,0.13,BF,2020-10-25 00:06:08,scattered clouds
Puerto Escondido,15.85,-97.07,84.2,74,90,5.82,MX,2020-10-25 00:06:08,overcast clouds
Tual,-5.67,132.75,82.89,73,87,4.09,ID,2020-10-24 23:57:53,overcast clouds
Tarko-Sale,64.92,77.78,11.95,96,75,8.61,RU,2020-10-25 00:06:09,broken clouds
Purranque,-40.92,-73.17,51.8,76,69,11.41,CL,2020-10-25 00:06:09,broken clouds
Lagoa,39.05,-27.98,65.71,73,80,18.23,PT,2020-10-25 00:00:30,broken clouds
Buala,-8.14,159.59,85.24,70,7,6.02,SB,2020-10-24 23:59:45,light rain
Batemans Bay,-35.72,150.18,57.99,82,100,9.89,AU,2020-10-25 00:06:10,light rain
Bergen,60.39,5.33,51.01,93,75,27.51,NO,2020-10-25 00:06:10,moderate rain
Alihe,50.57,123.72,33.1,87,0,3.11,CN,2020-10-25 00:06:10,clear sky
Kudahuvadhoo,2.67,72.89,82.04,79,70,10.07,MV,2020-10-25 00:01:06,broken clouds
Bathsheba,13.22,-59.52,82.4,74,40,23.04,BB,2020-10-24 23:58:08,scattered clouds
Kirkwall,58.98,-2.96,44.6,81,10,12.75,GB,2020-10-25 00:06:11,clear sky
Lata,40.16,-8.33,62.01,81,99,8.99,PT,2020-10-25 00:02:14,overcast clouds
Cairns,-16.92,145.77,87.01,69,75,8.05,AU,2020-10-25 00:05:51,broken clouds
Tezu,27.92,96.17,70.72,86,93,2.59,IN,2020-10-25 00:06:11,overcast clouds
Iqaluit,63.75,-68.51,26.6,86,90,4.7,CA,2020-10-24 23:55:41,light snow
Iracoubo,5.48,-53.2,82.56,75,79,11.74,GF,2020-10-25 00:06:12,broken clouds
Bani,18.28,-70.33,84.0,95,99,7.92,DO,2020-10-25 00:06:12,light rain
Ventersburg,-28.09,27.14,65.12,49,56,5.12,ZA,2020-10-25 00:06:12,broken clouds
Ruwi,23.6,58.55,73.4,64,0,4.7,OM,2020-10-25 00:06:13,clear sky
Auki,-8.77,160.7,87.12,64,6,3.74,SB,2020-10-25 00:06:13,light rain
Pontianak,-0.03,109.33,77.74,88,100,3.11,ID,2020-10-25 00:06:13,overcast clouds
Correntina,-13.34,-44.64,70.72,91,100,2.62,BR,2020-10-25 00:06:14,light rain
Porto Novo,6.5,2.6,80.6,88,20,8.05,BJ,2020-10-24 23:56:21,few clouds
Lasa,46.62,10.7,48.99,86,5,3.36,IT,2020-10-25 00:06:14,clear sky
Kabin Buri,13.95,101.72,69.85,78,78,5.01,TH,2020-10-25 00:06:14,broken clouds
Houma,29.6,-90.72,73.4,78,1,5.82,US,2020-10-25 00:05:50,clear sky
Teguldet,57.31,88.17,25.39,97,72,10.2,RU,2020-10-25 00:01:45,light snow
Khorramshahr,30.44,48.17,62.6,93,0,2.24,IR,2020-10-25 00:06:15,mist
Ukiah,39.15,-123.21,73.4,35,1,10.29,US,2020-10-25 00:00:04,clear sky
Oistins,13.07,-59.53,82.4,74,40,23.04,BB,2020-10-25 00:06:15,scattered clouds
Faya,18.39,42.45,59.0,19,0,2.42,SA,2020-10-25 00:01:06,clear sky
Munkebo,55.46,10.56,54.09,85,100,18.92,DK,2020-10-25 00:06:16,overcast clouds
Jalu,29.03,21.55,63.91,76,0,9.06,LY,2020-10-25 00:01:13,clear sky
Leninskoye,41.76,69.39,44.6,64,0,4.7,KZ,2020-10-25 00:06:16,smoke
Zhanakorgan,43.91,67.25,34.18,74,4,4.0,KZ,2020-10-25 00:06:17,clear sky
Raudeberg,61.99,5.14,50.0,78,100,17.09,NO,2020-10-25 00:01:42,moderate rain
Koslan,63.46,48.9,24.64,98,89,6.76,RU,2020-10-25 00:06:17,overcast clouds
Worland,44.02,-107.96,16.0,85,90,12.75,US,2020-10-25 00:06:17,fog
Saint-Paul,-21.01,55.27,68.0,52,0,8.05,RE,2020-10-25 00:06:18,clear sky
Pemangkat,1.17,108.97,78.71,83,100,4.59,ID,2020-10-25 00:06:18,overcast clouds
Gagnoa,6.13,-5.94,71.33,98,47,2.66,CI,2020-10-25 00:06:18,scattered clouds
Maarianhamina,60.1,19.93,30.2,100,20,1.12,AX,2020-10-25 00:00:32,few clouds
Aykhal,66.0,111.5,8.6,92,0,6.71,RU,2020-10-25 00:00:51,clear sky
Axim,4.87,-2.24,77.63,88,59,7.63,GH,2020-10-25 00:01:10,broken clouds
Imphal,24.82,93.95,63.63,93,17,1.32,IN,2020-10-25 00:06:20,few clouds
Salalah,17.02,54.09,73.4,49,0,2.24,OM,2020-10-24 23:57:07,clear sky
Marienburg,54.04,19.03,50.0,100,86,7.52,PL,2020-10-25 00:06:21,overcast clouds
Sioux Lookout,50.1,-91.92,26.6,73,75,5.82,CA,2020-10-25 00:00:13,light shower snow
Walvis Bay,-22.96,14.51,57.99,93,0,10.29,NA,2020-10-25 00:01:39,clear sky
Sitka,57.05,-135.33,42.8,38,75,1.05,US,2020-10-24 23:59:48,broken clouds
Kaihua,23.37,104.28,57.34,79,96,2.64,CN,2020-10-25 00:06:23,overcast clouds
Imbituba,-28.24,-48.67,73.4,83,75,6.93,BR,2020-10-25 00:06:23,broken clouds
Banjar,-8.19,114.97,80.6,100,75,3.36,ID,2020-10-25 00:06:23,light rain
Belmonte,-15.86,-38.88,77.0,78,40,8.05,BR,2020-10-25 00:06:23,scattered clouds
Khotyn,48.48,26.5,52.0,92,100,2.98,UA,2020-10-25 00:06:24,overcast clouds
Chifeng,42.27,118.96,45.61,50,91,4.5,CN,2020-10-25 00:06:24,overcast clouds
Poronaysk,49.22,143.12,44.94,79,100,11.14,RU,2020-10-25 00:06:24,light rain
Calvinia,-31.47,19.78,62.01,30,0,5.48,ZA,2020-10-25 00:06:24,clear sky
Conceicao Do Araguaia,-8.26,-49.26,75.74,84,81,4.34,BR,2020-10-25 00:06:24,broken clouds
Najran,17.49,44.13,60.8,25,0,3.36,SA,2020-10-25 00:06:25,clear sky
Constitucion,-35.33,-72.42,53.1,86,100,8.1,CL,2020-10-24 23:59:20,moderate rain
Ilebo,-4.32,20.58,71.58,95,93,2.19,CD,2020-10-25 00:06:25,overcast clouds
Hibbing,47.43,-92.94,26.6,63,90,8.05,US,2020-10-25 00:06:25,overcast clouds
Leningradskiy,69.38,178.42,24.01,93,24,9.22,RU,2020-10-24 23:56:09,few clouds
Kpandae,8.47,-0.01,78.06,72,100,3.71,GH,2020-10-25 00:06:26,overcast clouds
Bonthe,7.53,-12.51,78.19,83,100,3.78,SL,2020-10-25 00:01:38,overcast clouds
Banda Aceh,5.56,95.32,76.64,84,100,10.63,ID,2020-10-25 00:06:26,light rain
La Orilla,17.98,-102.23,82.54,86,47,6.87,MX,2020-10-25 00:06:26,scattered clouds
Goulburn,-34.75,149.72,48.99,85,100,3.0,AU,2020-10-25 00:06:26,overcast clouds
Vardo,70.37,31.11,39.22,74,100,19.1,NO,2020-10-25 00:00:56,overcast clouds
Englewood,39.65,-104.99,48.99,44,18,1.01,US,2020-10-25 00:02:19,few clouds
Borovikha,53.51,83.84,21.2,85,40,4.47,RU,2020-10-25 00:06:27,scattered clouds
La Palma,33.85,-118.05,71.6,56,90,4.7,US,2020-10-25 00:06:27,overcast clouds
Labuhan,-6.88,112.21,81.55,78,94,7.96,ID,2020-10-24 23:55:38,overcast clouds
Portland,45.52,-122.68,51.01,53,75,19.46,US,2020-10-25 00:01:00,broken clouds
Ketchikan,55.34,-131.65,44.6,26,1,5.82,US,2020-10-25 00:06:12,clear sky
Shache,38.42,77.24,46.0,45,100,8.7,CN,2020-10-25 00:06:28,overcast clouds
Cabildo,-38.48,-61.9,62.01,86,2,10.49,AR,2020-10-25 00:05:23,clear sky
Fort Nelson,58.81,-122.7,32.0,76,20,2.24,CA,2020-10-25 00:01:16,few clouds
Kutum,14.2,24.67,70.97,25,33,11.5,SD,2020-10-25 00:06:28,scattered clouds
Coolum Beach,-26.53,153.1,82.0,69,23,7.0,AU,2020-10-25 00:06:29,few clouds
Rognan,67.1,15.39,30.99,94,23,8.34,NO,2020-10-25 00:06:29,few clouds
Zhangye,38.93,100.45,43.66,51,91,11.63,CN,2020-10-25 00:06:29,overcast clouds
Viransehir,37.24,39.76,66.45,24,66,3.42,TR,2020-10-25 00:06:29,broken clouds
Dumka,24.27,87.25,70.43,77,2,4.63,IN,2020-10-25 00:06:29,clear sky
Shimoda,34.67,138.95,62.6,63,75,12.75,JP,2020-10-25 00:00:45,broken clouds
Adre,13.47,22.2,74.05,23,37,10.51,TD,2020-10-25 00:06:30,scattered clouds
Pouembout,-21.13,164.9,84.67,55,36,6.31,NC,2020-10-25 00:06:30,scattered clouds
Victor Harbor,-35.57,138.62,54.0,67,92,1.99,AU,2020-10-24 23:59:21,overcast clouds
Voh,-20.97,164.7,85.37,54,42,6.55,NC,2020-10-25 00:01:18,scattered clouds
Strelka,58.07,93.03,28.35,96,92,7.87,RU,2020-10-25 00:06:31,overcast clouds
Veraval,20.9,70.37,80.37,59,23,5.59,IN,2020-10-24 23:59:26,few clouds
Ternate,0.8,127.4,82.85,74,100,2.82,ID,2020-10-25 00:06:31,light rain
Sattahip,12.67,100.9,71.6,83,87,2.24,TH,2020-10-25 00:06:32,overcast clouds
Fairbanks,64.84,-147.72,30.99,73,90,2.44,US,2020-10-24 23:55:02,overcast clouds
Vuktyl,63.86,57.31,24.3,98,100,9.73,RU,2020-10-24 23:59:49,snow
Turbat,26.0,63.04,73.04,20,0,35.28,PK,2020-10-25 00:06:32,clear sky
Kloulklubed,7.04,134.26,82.4,83,75,7.07,PW,2020-10-25 00:06:33,broken clouds
Naryan-Mar,67.67,53.09,16.2,94,67,12.97,RU,2020-10-25 00:06:33,broken clouds
Oltu,40.55,42.0,51.58,43,39,1.41,TR,2020-10-25 00:06:33,scattered clouds
Xichang,27.9,102.26,57.25,74,77,0.36,CN,2020-10-25 00:05:45,broken clouds
Ojinaga,29.57,-104.42,82.4,26,1,1.92,MX,2020-10-25 00:06:34,clear sky
Sambava,-14.27,50.17,71.53,84,39,9.4,MG,2020-10-25 00:06:34,light rain
Zyryanka,65.75,150.85,17.87,94,0,8.95,RU,2020-10-25 00:06:34,clear sky
Shingu,33.73,135.98,57.2,54,20,9.17,JP,2020-10-25 00:06:34,few clouds
Kuryk,43.2,51.65,60.17,92,58,10.8,KZ,2020-10-25 00:06:35,broken clouds
Chandler,33.31,-111.84,84.99,28,90,5.21,US,2020-10-25 00:06:11,overcast clouds
Olavarria,-36.89,-60.32,64.0,83,0,1.99,AR,2020-10-25 00:06:35,clear sky
Mandera,3.94,41.87,80.83,66,100,14.2,KE,2020-10-25 00:06:35,overcast clouds
Nohar,29.18,74.77,70.97,22,0,6.55,IN,2020-10-25 00:06:36,clear sky
Qaqortoq,60.72,-46.03,26.6,73,55,5.82,GL,2020-10-24 23:59:19,broken clouds
Binghamton,42.1,-75.92,44.01,73,90,10.29,US,2020-10-25 00:03:23,overcast clouds
Kyren,51.68,102.14,35.38,85,100,3.22,RU,2020-10-25 00:06:36,overcast clouds
Jiuquan,39.74,98.52,39.49,70,100,8.66,CN,2020-10-24 23:58:19,light rain
Pokrovka,42.34,78.01,35.83,68,59,4.56,KG,2020-10-25 00:06:36,broken clouds
Sirjan,29.45,55.68,46.67,51,0,9.04,IR,2020-10-25 00:06:37,clear sky
Kunashak,55.7,61.55,39.2,100,20,8.95,RU,2020-10-25 00:06:37,few clouds
Nagapattinam,10.77,79.83,78.71,82,100,4.38,IN,2020-10-25 00:06:37,overcast clouds
Tiarei,-17.53,-149.33,86.0,66,75,8.05,PF,2020-10-25 00:06:37,shower rain
Kodinar,20.79,70.7,78.87,59,14,4.54,IN,2020-10-25 00:06:38,few clouds
Petropavlovsk-Kamchatskiy,53.05,158.65,42.8,81,90,4.47,RU,2020-10-25 00:06:38,light intensity shower rain
Laguna,38.42,-121.42,72.0,49,1,10.29,US,2020-10-24 23:58:47,clear sky
Paamiut,61.99,-49.67,29.08,85,39,2.66,GL,2020-10-25 00:00:25,scattered clouds
Nemuro,43.32,145.57,50.0,61,20,13.87,JP,2020-10-25 00:00:49,few clouds
Helong,42.54,129.0,44.13,55,0,11.52,CN,2020-10-25 00:06:39,clear sky
Zykovo,55.95,93.15,26.6,86,40,6.71,RU,2020-10-25 00:06:39,scattered clouds
Yar-Sale,66.83,70.83,15.78,96,41,6.49,RU,2020-10-25 00:00:28,scattered clouds
Tessalit,20.2,1.01,79.12,16,0,8.3,ML,2020-10-25 00:06:39,clear sky
Deputatskiy,69.3,139.9,7.65,90,0,8.3,RU,2020-10-25 00:01:52,clear sky
Batagay-Alyta,67.8,130.41,9.55,86,100,4.5,RU,2020-10-25 00:00:58,overcast clouds
Novikovo,51.15,37.89,53.33,90,100,8.25,RU,2020-10-24 23:59:48,overcast clouds
Nome,64.5,-165.41,37.99,86,90,10.29,US,2020-10-24 23:58:20,overcast clouds
Tatarsk,55.22,75.98,28.51,83,100,16.71,RU,2020-10-25 00:01:46,overcast clouds
Fairview,40.81,-74.0,60.8,51,20,8.05,US,2020-10-25 00:02:29,few clouds
Flinders,-34.58,150.86,57.0,76,100,5.99,AU,2020-10-25 00:02:15,overcast clouds
Lakatoro,-16.1,167.42,84.2,70,75,10.29,VU,2020-10-25 00:06:41,broken clouds
Dalaoig,17.93,121.72,79.54,88,90,1.72,PH,2020-10-25 00:06:41,light rain
Filingue,14.35,3.32,85.06,14,22,7.4,NE,2020-10-25 00:06:41,few clouds
Umm Kaddadah,13.6,26.69,81.05,20,0,16.06,SD,2020-10-25 00:06:41,clear sky
College,64.86,-147.8,30.99,68,75,3.36,US,2020-10-25 00:01:22,broken clouds
Ikom,5.97,8.71,71.8,98,100,4.97,NG,2020-10-25 00:06:42,heavy intensity rain
Kamaishi,39.27,141.88,50.0,81,75,9.17,JP,2020-10-25 00:06:42,broken clouds
Santa Isabel Do Para,-1.3,-48.16,82.4,74,40,9.17,BR,2020-10-25 00:06:42,scattered clouds
Atambua,-9.11,124.89,85.24,62,31,1.54,ID,2020-10-25 00:00:00,scattered clouds
Kahului,20.89,-156.47,91.4,52,40,16.11,US,2020-10-24 23:56:13,scattered clouds
Miandrivazo,-19.52,45.47,76.05,64,97,2.68,MG,2020-10-25 00:06:43,overcast clouds
Matara,5.95,80.54,76.46,90,75,5.32,LK,2020-10-24 23:59:45,broken clouds
Codrington,-38.27,141.97,50.88,66,69,20.11,AU,2020-10-25 00:00:25,broken clouds
Clyde River,70.47,-68.59,17.6,85,90,9.17,CA,2020-10-24 23:56:57,overcast clouds
Trairi,-3.28,-39.27,79.7,80,2,11.18,BR,2020-10-25 00:01:12,clear sky
Mehamn,71.04,27.85,37.4,80,100,13.29,NO,2020-10-25 00:00:47,overcast clouds
Feodosiya,45.03,35.38,62.92,71,83,5.32,UA,2020-10-25 00:06:44,broken clouds
Boryslav,49.29,23.43,48.2,100,90,0.49,UA,2020-10-25 00:06:45,fog
Katsuura,35.13,140.3,64.0,44,75,13.87,JP,2020-10-24 23:55:30,broken clouds
Xinpu,34.6,119.16,54.7,59,98,4.79,CN,2020-10-25 00:06:45,overcast clouds
Anito,12.45,125.29,79.09,89,100,9.6,PH,2020-10-25 00:00:10,moderate rain
Ucluelet,48.93,-125.55,51.01,52,20,8.05,CA,2020-10-24 23:57:47,few clouds
Nioro,13.35,-15.75,79.07,82,17,5.08,GM,2020-10-25 00:01:53,few clouds
Limbang,4.75,115.0,80.6,88,75,1.12,MY,2020-10-25 00:06:46,heavy intensity rain
Muzhi,65.37,64.67,16.5,97,85,6.44,RU,2020-10-25 00:06:46,overcast clouds
Dong Xoai,11.53,106.92,75.18,90,79,1.1,VN,2020-10-25 00:06:46,broken clouds
Otane,-39.88,176.63,75.0,57,4,5.99,NZ,2020-10-25 00:06:46,clear sky
Sulangan,11.14,123.72,81.59,79,95,14.36,PH,2020-10-25 00:01:27,heavy intensity rain
Mount Pleasant,32.79,-79.86,73.99,100,1,7.14,US,2020-10-25 00:05:29,clear sky
Goba,7.02,39.98,48.81,70,1,4.81,ET,2020-10-25 00:06:47,clear sky
Chlorakas,34.8,32.41,75.2,60,20,8.05,CY,2020-10-25 00:06:47,few clouds
Port Blair,11.67,92.75,80.4,78,45,1.48,IN,2020-10-25 00:00:50,scattered clouds
Campbell River,50.02,-125.24,46.4,33,20,8.05,CA,2020-10-25 00:06:48,few clouds
Takoradi,4.88,-1.76,77.2,89,43,8.25,GH,2020-10-25 00:06:48,scattered clouds
Sechura,-5.56,-80.82,66.15,72,22,15.75,PE,2020-10-25 00:06:48,few clouds
Mackay,-21.15,149.2,84.99,74,75,11.41,AU,2020-10-25 00:06:48,broken clouds
Roald,62.58,6.13,50.0,66,100,13.87,NO,2020-10-25 00:06:48,light rain
Half Moon Bay,37.46,-122.43,68.0,77,1,5.82,US,2020-10-25 00:01:53,clear sky
Ust-Ilimsk,58.0,102.66,28.85,97,100,3.11,RU,2020-10-25 00:06:49,overcast clouds
Flin Flon,54.77,-101.86,23.0,57,90,9.17,CA,2020-10-25 00:06:49,light shower snow
Pekin,39.91,116.4,54.0,58,99,2.55,CN,2020-10-25 00:04:26,overcast clouds
Aksarka,66.56,67.8,9.81,95,21,5.28,RU,2020-10-25 00:06:50,few clouds
Kuching,1.55,110.33,75.2,94,20,2.62,MY,2020-10-25 00:06:50,few clouds
Jeremie,18.65,-74.12,81.39,76,76,7.07,HT,2020-10-25 00:06:50,broken clouds
Altamira,-3.2,-52.21,83.68,51,90,1.9,BR,2020-10-25 00:06:50,overcast clouds
Altamont,42.21,-121.74,60.8,38,1,12.75,US,2020-10-25 00:06:50,clear sky
Daru,-9.08,143.21,82.78,76,97,9.19,PG,2020-10-25 00:06:51,overcast clouds
Tshikapa,-6.42,20.8,70.83,92,80,1.39,CD,2020-10-25 00:06:51,broken clouds
Erenhot,43.65,111.98,44.4,73,10,7.18,CN,2020-10-25 00:06:51,clear sky
Sinjar,36.32,41.88,61.25,32,8,3.18,IQ,2020-10-25 00:06:51,clear sky
Port Hardy,50.7,-127.42,46.4,45,5,14.99,CA,2020-10-24 23:59:20,clear sky
Kismayo,-0.36,42.55,79.88,82,84,12.53,SO,2020-10-25 00:06:52,light rain
Karpathos,35.51,27.21,71.6,78,1,16.11,GR,2020-10-25 00:06:52,clear sky
Ahome,25.92,-109.18,89.6,46,5,13.87,MX,2020-10-25 00:06:53,clear sky
Harlingen,26.19,-97.7,75.2,60,1,12.75,US,2020-10-25 00:00:26,clear sky
Martaban,16.53,97.61,74.8,89,24,3.49,MM,2020-10-25 00:06:53,few clouds
Boca Do Acre,-8.75,-67.4,80.01,75,86,0.94,BR,2020-10-25 00:06:53,light rain
Khromtau,50.25,58.43,45.34,84,92,16.22,KZ,2020-10-25 00:06:53,light rain
Benguela,-12.58,13.41,75.02,79,62,7.63,AO,2020-10-25 00:06:54,broken clouds
Coquimbo,-29.95,-71.34,55.4,82,90,9.17,CL,2020-10-24 23:59:20,overcast clouds
Luz,-19.8,-45.69,67.41,93,93,8.01,BR,2020-10-25 00:06:54,light rain
Casma,-41.01,-73.12,51.8,76,65,11.41,CL,2020-10-25 00:06:54,broken clouds
Batesville,35.77,-91.64,48.99,81,90,4.7,US,2020-10-25 00:03:53,overcast clouds
Beli Potok,44.71,20.52,55.4,100,75,4.7,RS,2020-10-25 00:06:55,mist
Aksha,50.28,113.29,32.02,93,95,2.17,RU,2020-10-25 00:06:55,overcast clouds
Partenit,44.58,34.34,65.89,53,91,2.24,UA,2020-10-25 00:06:55,overcast clouds
Bisira,8.52,-81.71,60.67,100,100,3.98,PA,2020-10-25 00:06:55,moderate rain
Lokosovo,61.13,74.82,19.63,96,64,9.44,RU,2020-10-25 00:06:56,broken clouds
Igarka,67.47,86.58,11.12,96,95,12.84,RU,2020-10-25 00:00:48,overcast clouds
Machala,-3.27,-79.97,70.5,87,62,7.23,EC,2020-10-25 00:02:31,broken clouds
Mangrol,21.12,70.12,80.69,60,39,5.55,IN,2020-10-25 00:06:56,scattered clouds
Ciudad Bolivar,8.12,-63.55,81.5,73,76,7.85,VE,2020-10-25 00:06:57,broken clouds
Canon City,38.44,-105.24,61.0,16,1,5.01,US,2020-10-25 00:06:57,clear sky
Zhigansk,66.77,123.37,20.48,96,100,21.68,RU,2020-10-24 23:57:03,snow
Waingapu,-9.66,120.26,84.09,64,51,3.87,ID,2020-10-25 00:02:00,broken clouds
Port Hedland,-20.32,118.57,78.8,65,0,12.75,AU,2020-10-25 00:06:57,clear sky
Nicoya,10.15,-85.45,78.8,94,75,3.36,CR,2020-10-25 00:06:57,broken clouds
Havoysund,71.0,24.66,37.4,93,100,17.22,NO,2020-10-25 00:02:12,light rain
Monroe,43.15,-77.68,45.0,70,90,5.82,US,2020-10-25 00:04:05,overcast clouds
Los Andes,-32.83,-70.6,60.01,98,0,3.0,CL,2020-10-25 00:05:30,clear sky
Monrovia,6.3,-10.8,77.0,94,40,6.98,LR,2020-10-25 00:05:34,scattered clouds
Pochutla,15.74,-96.47,84.2,74,90,4.18,MX,2020-10-25 00:02:00,overcast clouds
Rockport,28.02,-97.05,73.4,60,75,5.82,US,2020-10-25 00:06:59,broken clouds
Suicheng,33.9,117.93,56.26,56,91,7.43,CN,2020-10-25 00:06:59,overcast clouds
Hervey Bay,-25.3,152.85,82.0,61,75,17.22,AU,2020-10-25 00:06:59,broken clouds
Gawler,-34.6,138.73,57.0,55,41,8.01,AU,2020-10-25 00:06:59,scattered clouds
Evensk,61.95,159.23,33.76,86,83,9.89,RU,2020-10-25 00:06:59,broken clouds
Sao Gabriel Da Cachoeira,-0.13,-67.09,75.02,92,71,0.92,BR,2020-10-25 00:07:00,broken clouds
Maragogi,-9.01,-35.22,76.96,80,53,9.4,BR,2020-10-24 23:58:42,broken clouds
Punta Alta,-38.88,-62.07,68.25,60,0,12.19,AR,2020-10-25 00:07:01,clear sky
Manta,-0.95,-80.73,73.4,83,90,6.93,EC,2020-10-25 00:06:18,overcast clouds
Barra Da Estiva,-13.63,-41.33,68.45,79,88,6.13,BR,2020-10-25 00:07:01,overcast clouds
Polysayevo,54.6,86.25,23.85,92,69,10.71,RU,2020-10-25 00:07:01,broken clouds
Touros,-5.2,-35.46,77.0,88,40,5.82,BR,2020-10-24 23:56:57,scattered clouds
Custodia,-8.09,-37.64,74.48,65,94,9.98,BR,2020-10-25 00:07:02,overcast clouds
Repnoye,51.59,43.19,51.39,88,100,4.27,RU,2020-10-25 00:07:02,light rain
Wukari,7.85,9.78,74.46,91,100,7.16,NG,2020-10-25 00:07:02,light rain
Mogadishu,2.04,45.34,79.23,85,100,5.03,SO,2020-10-25 00:07:02,light rain
Caxito,-8.58,13.66,77.0,78,75,6.93,AO,2020-10-25 00:07:03,broken clouds
Dunmore East,52.15,-6.99,52.0,75,19,8.01,IE,2020-10-25 00:07:03,few clouds
Warmbad,-28.45,18.73,69.42,25,32,7.45,NA,2020-10-25 00:07:03,scattered clouds
Dhandhuka,22.37,71.98,80.92,44,11,4.14,IN,2020-10-25 00:07:03,few clouds
Puerto Narino,-3.77,-70.38,78.8,94,40,2.24,CO,2020-10-25 00:07:04,scattered clouds
Hambantota,6.12,81.12,78.24,82,88,10.85,LK,2020-10-25 00:00:47,overcast clouds
Makokou,0.57,12.86,69.73,97,100,3.6,GA,2020-10-25 00:07:04,light rain
Palana,59.12,159.97,38.3,72,100,4.38,RU,2020-10-25 00:01:10,overcast clouds
Hammerfest,70.66,23.68,37.4,93,100,17.22,NO,2020-10-25 00:07:05,light intensity drizzle
Kalyazin,57.24,37.84,38.23,88,89,4.76,RU,2020-10-25 00:07:05,overcast clouds
Nizhniy Kuranakh,58.84,125.49,23.27,96,10,0.34,RU,2020-10-25 00:07:05,clear sky
San Rafael Del Sur,11.85,-86.44,86.0,66,75,6.93,NI,2020-10-25 00:07:05,broken clouds
Saint-Pierre,-21.34,55.48,68.0,56,0,6.93,RE,2020-10-25 00:07:05,clear sky
Mukdahan,16.58,104.5,66.63,81,68,3.96,TH,2020-10-25 00:07:06,broken clouds
Lakes Entrance,-37.88,147.98,52.0,95,37,7.0,AU,2020-10-25 00:07:06,light rain
Denia,38.84,0.11,66.99,49,0,4.0,ES,2020-10-25 00:07:06,clear sky
Bharatpur,27.22,77.48,71.26,23,0,3.31,IN,2020-10-25 00:07:06,clear sky
Boyolangu,-8.12,111.89,79.61,80,87,3.42,ID,2020-10-25 00:00:45,overcast clouds
Pedernales,18.04,-71.74,81.84,72,75,11.36,DO,2020-10-25 00:07:07,light rain
Padang,-0.95,100.35,78.4,77,100,3.15,ID,2020-10-25 00:01:49,overcast clouds
Kalmunai,7.42,81.82,78.22,78,99,1.23,LK,2020-10-25 00:07:07,overcast clouds
Bontang,0.13,117.5,78.66,83,100,4.05,ID,2020-10-25 00:06:14,overcast clouds
Tsumeb,-19.23,17.72,72.05,22,38,8.3,NA,2020-10-25 00:07:08,scattered clouds
Necochea,-38.55,-58.74,61.0,83,20,8.99,AR,2020-10-24 23:57:11,few clouds
Zacatepec,18.65,-99.2,80.6,34,5,4.7,MX,2020-10-25 00:07:08,clear sky
Naze,28.37,129.48,71.6,56,40,8.05,JP,2020-10-25 00:01:03,scattered clouds
Lichinga,-13.31,35.24,64.02,68,12,4.43,MZ,2020-10-25 00:07:08,few clouds
Sovetskiy,61.36,63.58,24.64,97,100,8.66,RU,2020-10-25 00:00:59,light snow
Lensk,60.73,114.93,28.24,97,97,0.45,RU,2020-10-25 00:07:09,overcast clouds
Kango,0.19,10.1,73.81,96,100,1.3,GA,2020-10-25 00:07:09,overcast clouds
Serra,-20.13,-40.31,75.0,94,40,5.82,BR,2020-10-25 00:03:30,moderate rain
Sidney,-33.87,151.21,59.0,87,75,26.4,AU,2020-10-25 00:05:00,shower rain
Casas Grandes,30.37,-107.95,82.0,17,3,8.01,MX,2020-10-25 00:07:09,clear sky
Methoni,36.82,21.7,62.01,81,0,11.25,GR,2020-10-25 00:00:38,clear sky
Wladyslawowo,54.79,18.4,52.0,100,0,4.7,PL,2020-10-25 00:07:10,clear sky
Olinda,-8.01,-34.86,80.6,78,75,9.17,BR,2020-10-25 00:02:02,broken clouds
Kushiro,42.98,144.37,48.2,66,20,10.29,JP,2020-10-25 00:07:10,few clouds
Pyaozerskiy,65.83,31.17,31.32,97,98,5.39,RU,2020-10-25 00:07:11,overcast clouds
Palmares,-8.68,-35.59,72.52,89,80,2.73,BR,2020-10-25 00:07:11,broken clouds
Haapsalu,58.94,23.54,46.99,92,59,11.01,EE,2020-10-25 00:07:11,broken clouds
Edeia,-17.34,-49.93,74.16,77,89,7.7,BR,2020-10-25 00:07:11,overcast clouds
Aguimes,27.91,-15.45,71.6,64,75,18.34,ES,2020-10-25 00:07:11,broken clouds
Geraldton,-28.77,114.6,80.6,21,0,11.41,AU,2020-10-24 23:55:57,clear sky
Nhlangano,-27.12,31.2,59.83,56,8,3.2,SZ,2020-10-25 00:07:12,clear sky
Sadasivpet,17.62,77.95,71.01,100,0,3.38,IN,2020-10-25 00:07:12,mist
Sukumo,32.93,132.73,60.44,56,0,5.44,JP,2020-10-25 00:07:12,clear sky
Hamilton,39.18,-84.53,48.2,66,1,6.93,US,2020-10-25 00:01:26,clear sky
Hakkari,37.58,44.17,44.1,57,0,0.72,TR,2020-10-25 00:07:13,clear sky
Sur,22.57,59.53,75.88,50,0,10.76,OM,2020-10-25 00:07:13,clear sky
San Antonio,29.42,-98.49,69.8,52,90,3.36,US,2020-10-25 00:05:25,overcast clouds
Newport,51.59,-3.0,48.99,97,70,16.17,GB,2020-10-25 00:02:16,broken clouds
Idritsa,56.33,28.9,47.64,93,95,8.03,RU,2020-10-25 00:07:14,light rain
Nanakuli,21.39,-158.15,84.2,70,1,9.17,US,2020-10-24 23:59:49,clear sky
Sola,-13.88,167.55,87.8,62,75,5.82,VU,2020-10-25 00:07:14,broken clouds
Saint-Augustin,51.23,-58.65,47.23,93,100,24.34,CA,2020-10-25 00:02:12,moderate rain
Liku,-0.73,119.89,81.63,72,100,2.51,ID,2020-10-25 00:07:15,light rain
Mayumba,-3.43,10.66,76.75,88,99,7.43,GA,2020-10-25 00:07:15,light rain
Vilhena,-12.74,-60.15,70.86,97,97,10.51,BR,2020-10-25 00:07:15,heavy intensity rain
Sao Felix Do Xingu,-6.64,-51.99,73.56,94,100,1.59,BR,2020-10-25 00:07:15,moderate rain
Altay,47.87,88.12,21.24,82,6,2.86,CN,2020-10-25 00:07:15,clear sky
Grand Gaube,-20.01,57.66,69.01,90,35,7.0,MU,2020-10-25 00:00:54,light rain
Lavrentiya,65.58,-171.0,34.3,85,37,7.67,RU,2020-10-24 23:55:29,scattered clouds
Jizan,17.33,42.67,84.2,79,1,0.49,SA,2020-10-25 00:07:16,clear sky
Natchez,31.56,-91.4,55.4,87,90,6.93,US,2020-10-25 00:07:16,overcast clouds
Kattivakkam,13.22,80.32,80.6,88,75,2.24,IN,2020-10-25 00:07:16,mist
Trelew,-43.25,-65.31,61.41,58,18,12.68,AR,2020-10-25 00:01:29,few clouds
Hobyo,5.35,48.53,78.55,79,93,7.72,SO,2020-10-25 00:02:19,overcast clouds
Northam,51.03,-4.22,48.0,92,64,16.78,GB,2020-10-25 00:01:05,broken clouds
Bilibino,68.05,166.44,20.95,88,1,1.86,RU,2020-10-25 00:01:24,clear sky
El Terrero,14.07,-87.07,80.6,69,75,4.7,HN,2020-10-25 00:07:17,broken clouds
Aurillac,44.92,2.45,50.0,93,0,10.29,FR,2020-10-25 00:02:35,clear sky
Aquiraz,-3.9,-38.39,80.6,83,20,11.41,BR,2020-10-25 00:01:12,few clouds
Te Anau,-45.42,167.72,61.5,79,97,6.31,NZ,2020-10-25 00:07:18,overcast clouds
Terrace Bay,48.78,-87.1,30.34,89,55,9.89,CA,2020-10-25 00:07:18,broken clouds
Ascension,30.22,-90.9,66.2,82,90,5.82,US,2020-10-25 00:07:19,overcast clouds
Dilla,6.41,38.31,60.1,76,18,3.85,ET,2020-10-25 00:07:19,few clouds
Jennings,38.72,-90.26,48.99,57,90,10.29,US,2020-10-25 00:07:19,overcast clouds
Boali,4.8,18.13,72.79,91,100,2.66,CF,2020-10-25 00:07:20,light rain
Gat,31.61,34.76,78.01,73,75,9.17,IL,2020-10-25 00:01:50,broken clouds
Presque Isle,46.68,-68.02,41.0,86,1,10.29,US,2020-10-25 00:04:40,clear sky
Mali,12.08,-12.3,63.46,61,17,1.77,GN,2020-10-25 00:07:21,few clouds
Wewak,-3.55,143.63,83.91,70,59,3.91,PG,2020-10-25 00:07:21,light rain
Guozhen,34.37,107.36,56.68,57,74,0.31,CN,2020-10-25 00:07:22,broken clouds
Jinchang,38.5,102.17,48.65,45,94,7.2,CN,2020-10-25 00:07:22,overcast clouds
Nurota,40.56,65.69,35.6,59,0,4.7,UZ,2020-10-25 00:00:41,clear sky
Kawalu,-7.38,108.21,73.02,92,100,0.98,ID,2020-10-25 00:07:22,heavy intensity rain
Derzhavinsk,51.1,66.32,40.84,91,100,24.34,KZ,2020-10-25 00:07:23,moderate rain
Ahipara,-35.17,173.17,69.37,63,20,5.61,NZ,2020-10-25 00:07:23,few clouds
Novolabinskaya,45.11,39.89,46.4,81,0,3.69,RU,2020-10-25 00:07:23,clear sky
Toccoa,34.58,-83.33,68.0,94,90,6.93,US,2020-10-25 00:06:10,heavy intensity rain
Plymouth,41.83,-70.83,64.4,82,90,4.7,US,2020-10-25 00:07:24,overcast clouds
Broken Hill,-31.95,141.43,50.0,71,40,18.34,AU,2020-10-25 00:07:24,scattered clouds
Batticaloa,7.71,81.69,77.85,76,99,2.37,LK,2020-10-25 00:06:06,overcast clouds
Sahuaripa,29.05,-109.23,89.2,23,0,7.94,MX,2020-10-25 00:07:24,clear sky
Arona,28.1,-16.68,69.8,60,20,14.99,ES,2020-10-25 00:07:24,few clouds
Kanigoro,-8.13,112.22,79.2,79,89,3.58,ID,2020-10-25 00:01:09,overcast clouds
Dalvik,65.97,-18.53,41.0,75,90,20.8,IS,2020-10-25 00:07:25,light intensity drizzle
Pringsewu,-5.36,104.97,77.85,81,97,5.14,ID,2020-10-25 00:07:25,light rain
Killin,33.61,-91.74,51.8,81,90,5.82,US,2020-10-25 00:07:25,overcast clouds
Sri Aman,1.24,111.46,73.4,100,100,2.24,MY,2020-10-25 00:07:25,overcast clouds
Sorland,67.67,12.69,42.42,75,13,21.18,NO,2020-10-25 00:00:57,few clouds
Samarai,-10.62,150.67,82.27,74,67,4.21,PG,2020-10-25 00:02:05,broken clouds
Ciudad Ojeda,10.2,-71.31,81.43,79,52,7.7,VE,2020-10-25 00:07:26,broken clouds
Jidong,45.22,131.08,40.96,66,7,14.03,CN,2020-10-25 00:07:26,clear sky
Grajau,-5.82,-46.14,78.91,71,97,1.25,BR,2020-10-25 00:07:27,overcast clouds
Muros,42.78,-9.06,60.01,95,100,27.0,ES,2020-10-25 00:00:20,overcast clouds
Narsaq,60.92,-46.05,26.6,73,59,5.82,GL,2020-10-24 23:59:55,broken clouds
Koumac,-20.57,164.28,82.65,58,25,4.81,NC,2020-10-25 00:07:27,scattered clouds
Luohe,33.57,114.04,54.66,53,68,5.61,CN,2020-10-25 00:07:28,broken clouds
Hualmay,-11.1,-77.61,62.69,83,18,7.87,PE,2020-10-25 00:01:03,few clouds
Macau,22.2,113.55,75.2,69,20,11.41,MO,2020-10-25 00:07:28,few clouds
Vangaindrano,-23.35,47.6,68.49,89,73,4.05,MG,2020-10-25 00:07:28,broken clouds
Cardoso,-20.08,-49.91,75.0,83,95,7.25,BR,2020-10-25 00:07:28,light rain
Tucuman,-26.82,-65.22,77.0,78,20,5.82,AR,2020-10-24 23:58:23,few clouds
Karatau,43.17,70.47,35.73,81,1,3.22,KZ,2020-10-25 00:07:29,clear sky
Boshan,36.48,117.83,51.28,46,93,8.5,CN,2020-10-25 00:07:29,overcast clouds
Grand-Lahou,5.14,-5.02,77.5,85,20,6.02,CI,2020-10-25 00:07:29,light rain
Kambja,58.23,26.7,48.99,93,84,10.29,EE,2020-10-25 00:07:30,broken clouds
Lerwick,60.15,-1.15,50.0,81,56,11.41,GB,2020-10-25 00:00:26,broken clouds
Porto De Moz,-1.75,-52.24,82.98,57,66,4.29,BR,2020-10-25 00:07:30,broken clouds
Panguna,-6.32,155.48,83.61,60,57,2.37,PG,2020-10-25 00:07:30,broken clouds
Ewa Beach,21.32,-158.01,84.2,70,1,9.17,US,2020-10-24 23:57:16,clear sky
